[
  {"id":"kristian_birkeland","name":"Kristian Birkeland","initials":"KB","lat":59.9212,"lon":10.7317,"r":160,"desc":"Fysiker og oppdageren av nordlyset. Hadde sitt laboratorium i kjelleren under Observatoriet.","tags":["vitenskap"],"placeId":"observatoriet","image":"bilder/kort/people/kristian_birkeland.PNG"},
  {"id":"may_britt_moser","name":"May-Britt Moser","initials":"MM","lat":59.9198,"lon":10.7489,"r":160,"desc":"Nevrovitenskapsforsker og nobelprisvinner for oppdagelsen av hjernens stedsans. Knyttes til Nobelinstituttet i Oslo.","tags":["vitenskap"],"placeId":"nobelinstituttet","image":"bilder/kort/people/may_britt_moser.PNG"},
  {"id":"edvard_moser","name":"Edvard Moser","initials":"EM","lat":59.9198,"lon":10.7489,"r":160,"desc":"Hjerneforsker og nobelprisvinner – kartla hjernens romlige navigasjonssystem. Knyttes til Nobelinstituttet i Oslo.","tags":["vitenskap"],"placeId":"nobelinstituttet","image":"bilder/kort/people/edvard_moser.PNG"},
  {"id":"peter_waage","name":"Peter Waage","initials":"PW","lat":59.911,"lon":10.7414,"r":150,"desc":"Kjemiker – formulerte loven om massevirkning sammen med Guldberg.","tags":["vitenskap"],"placeId":"universitetets_gamle_kjemi","image":"bilder/kort/people/peter_waage.PNG"},
  {"id":"cato_guldberg","name":"Cato Maximilian Guldberg","initials":"CG","lat":59.911,"lon":10.7414,"r":150,"desc":"Kjemiker – grunnla loven om massevirkning.","tags":["vitenskap"],"placeId":"universitetets_gamle_kjemi","image":"bilder/kort/people/cato_guldberg.PNG"},
  {"id":"niels_henrik_abel","name":"Niels Henrik Abel","initials":"NA","lat":59.9185,"lon":10.7294,"r":150,"desc":"Matematiker som beviste at femtegradslikningen ikke kan løses algebraisk.","tags":["vitenskap"],"placeId":"abelhaugen","image":"bilder/kort/people/niels_henrik_abel.PNG"},
  {"id":"sophus_lie","name":"Sophus Lie","initials":"SL","lat":59.9118,"lon":10.7411,"r":150,"desc":"Matematiker – utviklet Lie-gruppene som brukes i moderne fysikk.","tags":["vitenskap"],"placeId":"universitetet_gamle_hovedbygning","image":"bilder/kort/people/sophus_lie.PNG"},
  {"id":"arne_naess_vitenskap","name":"Arne Næss","initials":"AN","lat":59.9611,"lon":10.7536,"r":160,"desc":"Filosof og grunnlegger av økofilosofi. Knyttes til Tvergastein i Nordmarka og til UiOs Blindern-campus.","tags":["vitenskap"],"placeId":"tvergastein","image":"bilder/kort/people/arne_naess_vitenskap.PNG"},

  {"id":"ibsen_national","name":"Henrik Ibsen","initials":"HI","lat":59.9146,"lon":10.7312,"r":150,"desc":"Dramatiker – «Et dukkehjem».","tags":["litteratur"],"placeId":"nationaltheatret","image":"bilder/kort/people/ibsen_national.PNG"},
  {"id":"camilla_collett","name":"Camilla Collett","initials":"CC","lat":59.9295,"lon":10.7431,"r":160,"desc":"Forfatter og kvinnesaksforkjemper.","tags":["litteratur"],"placeId":"damstredet_telthusbakken","image":"bilder/kort/people/camilla_collett.PNG"},
  {"id":"henrik_wergeland","name":"Henrik Wergeland","initials":"HW","lat":59.919,"lon":10.7338,"r":160,"desc":"Dikter og humanist – nasjonalt ikon.","tags":["litteratur"],"placeId":"voienvolden","image":"bilder/kort/people/henrik_wergeland.PNG"},
  {"id":"hamsun_nb","name":"Knut Hamsun","initials":"KH","lat":59.9138,"lon":10.7168,"r":150,"desc":"Forfatter – kontroversiell arv.","tags":["litteratur"],"placeId":"nasjonalbiblioteket","image":"bilder/kort/people/hamsun_nb.PNG"},
  {"id":"linn_nb","name":"Linn Ullmann","initials":"LU","lat":59.9138,"lon":10.7168,"r":150,"desc":"Forfatter og kritiker.","tags":["litteratur"],"placeId":"nasjonalbiblioteket","image":"bilder/kort/people/linn_nb.PNG"},

  {"id":"munch_munch","name":"Edvard Munch","initials":"EM","lat":59.9057,"lon":10.7606,"r":150,"desc":"Norges mest kjente kunstner.","tags":["kunst"],"placeId":"munch_museet","image":"bilder/kort/people/munch_munch.PNG"},
  {"id":"harriet_nasjonalmuseet","name":"Harriet Backer","initials":"HB","lat":59.9146,"lon":10.7229,"r":150,"desc":"Pionér innen norsk malerkunst.","tags":["kunst"],"placeId":"nasjonalmuseet","image":"bilder/kort/people/harriet_nasjonalmuseet.PNG"},
  {"id":"vigeland_parken","name":"Gustav Vigeland","initials":"GV","lat":59.927,"lon":10.7003,"r":150,"desc":"Skaperen av Vigelandsparken.","tags":["kunst"],"placeId":"vigelandsparken","image":"bilder/kort/people/vigeland_parken.PNG"},
  {"id":"melgaard_tjuv","name":"Bjarne Melgaard","initials":"BM","lat":59.907,"lon":10.7205,"r":180,"desc":"Kontroversiell samtidskunstner.","tags":["kunst"],"placeId":"tjuvholmen","image":"bilder/kort/people/melgaard_tjuv.PNG"},
  {"id":"steinar_jakobsen","name":"Steinar Jakobsen","initials":"SJ","r":160,"desc":"Billedkunstner kåret til «Oslo Original» i 2016.","tags":["kunst","subkultur"],"placeId":"astrup_fearnley","image":"bilder/kort/people/steinar_jakobsen.PNG"},
  {"id":"cecilie_ekeberg","name":"Cecilie Malm Brundtland","initials":"CB","lat":59.8997,"lon":10.7753,"r":200,"desc":"Pådriver for Ekeberg skulpturpark.","tags":["kunst"],"placeId":"ekebergparken","image":"bilder/kort/people/cecilie_ekeberg.PNG"},
  {"id":"dronning_sonja","name":"Dronning Sonja","initials":"DS","lat":59.91699,"lon":10.72763,"r":180,"desc":"Dronning og kunstner.","tags":["kunst"],"placeId":"slottet","image":"bilder/kort/people/dronning_sonja.PNG"},

  {"id":"kirsten_flagstad","name":"Kirsten Flagstad","initials":"KF","lat":59.9076,"lon":10.7532,"r":150,"desc":"Verdensstjerne fra operaens gullalder.","tags":["musikk"],"placeId":"operaen","image":"bilder/kort/people/kirsten_flagstad.PNG"},
  {"id":"alexander_rybak","name":"Alexander Rybak","initials":"AR","lat":59.9076,"lon":10.7532,"r":150,"desc":"Fiolinist og Eurovision-vinner.","tags":["musikk"],"placeId":"operaen","image":"bilder/kort/people/alexander_rybak.PNG"},
  {"id":"aurora_salt","name":"Aurora","initials":"AU","lat":59.9078,"lon":10.7525,"r":180,"desc":"Popartist med særegent uttrykk.","tags":["musikk"],"placeId":"salt","image":"bilder/kort/people/aurora_salt.PNG"},
  {"id":"sigrid_salt","name":"Sigrid","initials":"SI","lat":59.9078,"lon":10.7525,"r":180,"desc":"Popstjerne med Oslo-forbindelse.","tags":["musikk"],"placeId":"salt","image":"bilder/kort/people/sigrid_salt.PNG"},
  {"id":"karpe_sorenga","name":"Karpe","initials":"KA","lat":59.9029,"lon":10.7492,"r":180,"desc":"Chirag og Magdi – rapduoen fra Oslo.","tags":["musikk","subkultur"],"placeId":"sorenga","image":"bilder/kort/people/karpe_sorenga.PNG"},
  {"id":"ulrikke_brandstorp","name":"Ulrikke Brandstorp","initials":"UB","lat":59.922,"lon":10.7516,"r":180,"desc":"Artist og musikalstjerne.","tags":["musikk"],"placeId":"vulkan","image":"bilder/kort/people/ulrikke_brandstorp.PNG"},
  {"id":"kygo_barcode","name":"Kygo","initials":"KY","lat":59.9093,"lon":10.7539,"r":180,"desc":"DJ og produsent – moderne Oslo.","tags":["musikk"],"placeId":"barcode","image":"bilder/kort/people/kygo_barcode.PNG"},
  {"id":"gabrielle_barcode","name":"Gabrielle","initials":"GA","lat":59.9093,"lon":10.7539,"r":180,"desc":"Popartist og låtskriver.","tags":["musikk"],"placeId":"barcode","image":"bilder/kort/people/gabrielle_barcode.PNG"},
  {"id":"arif_stovner","name":"Arif","initials":"AR","lat":59.9705,"lon":10.9238,"r":200,"desc":"Rapper med røtter på Stovner.","tags":["musikk","subkultur"],"placeId":"stovnertarnet","image":"bilder/kort/people/arif_stovner.PNG"},

  {"id":"ada_hegerberg","name":"Ada Hegerberg","initials":"AH","lat":59.9489,"lon":10.7353,"r":200,"desc":"Ballon d’Or-vinner og landslagsspiss.","tags":["sport"],"placeId":"ullevaal_stadion","image":"bilder/kort/people/ada_hegerberg.PNG"},
  {"id":"erling_haaland","name":"Erling Braut Haaland","initials":"EH","lat":59.9489,"lon":10.7353,"r":200,"desc":"Spiss i verdensklasse.","tags":["sport"],"placeId":"ullevaal_stadion","image":"bilder/kort/people/erling_haaland.PNG"},
  {"id":"ronny_deila","name":"Ronny Deila","initials":"RD","lat":59.9157,"lon":10.7919,"r":180,"desc":"Trenerprofil – Vålerenga.","tags":["sport"],"placeId":"valle_hovin","image":"bilder/kort/people/ronny_deila.PNG"},
  {"id":"marit_bjorgen","name":"Marit Bjørgen","initials":"MB","lat":59.9644,"lon":10.6689,"r":200,"desc":"Tidenes vinterolympier.","tags":["sport"],"placeId":"holmenkollen","image":"bilder/kort/people/marit_bjorgen.PNG"},
  {"id":"therese_johaug","name":"Therese Johaug","initials":"TJ","lat":59.9644,"lon":10.6689,"r":200,"desc":"OL- og VM-gull i langrenn.","tags":["sport"],"placeId":"holmenkollen","image":"bilder/kort/people/therese_johaug.PNG"},
  {"id":"grete_waitz","name":"Grete Waitz","initials":"GW","lat":59.9763,"lon":10.7323,"r":200,"desc":"Maraton-legende og Oslostemme.","tags":["sport"],"placeId":"botanisk_hage","image":"bilder/kort/people/grete_waitz.PNG"},
  {"id":"mats_zuccarello","name":"Mats Zuccarello","initials":"MZ","lat":59.922,"lon":10.7516,"r":180,"desc":"Ishockeyprofil fra Grünerløkka.","tags":["sport"],"placeId":"vulkan","image":"bilder/kort/people/mats_zuccarello.PNG"},

  {"id":"gro_harlem","name":"Gro Harlem Brundtland","initials":"GH","lat":59.9133,"lon":10.7389,"r":150,"desc":"Statsminister og «landsmoderen».","tags":["politikk"],"placeId":"stortinget","image":"bilder/kort/people/gro_harlem.PNG"},
  {"id":"jens_stoltenberg","name":"Jens Stoltenberg","initials":"JS","lat":59.9133,"lon":10.7389,"r":150,"desc":"NATO-sjef og tidligere statsminister.","tags":["politikk"],"placeId":"stortinget","image":"bilder/kort/people/jens_stoltenberg.PNG"},
  {"id":"johan_sverdrup","name":"Johan Sverdrup","initials":"JS","lat":59.9134,"lon":10.7389,"r":160,"desc":"Statsminister og drivkraft for parlamentarismen.","tags":["politikk"],"placeId":"stortinget","image":"bilder/kort/people/johan_sverdrup.PNG"},
  {"id":"ole_koppen","name":"Ole Kopreitan","initials":"OK","r":160,"desc":"«Koppen» – fredsaktivist med stand på Karl Johan.","tags":["politikk","subkultur"],"placeId":"stortinget","image":"bilder/kort/people/ole_koppen.PNG"},

  {"id":"arne_naess","name":"Arne Næss","initials":"AN","lat":59.9611,"lon":10.7536,"r":160,"desc":"Filosof og grunnlegger av økofilosofi. Knyttes til Tvergastein i Nordmarka og til UiOs Blindern-campus.","tags":["natur"],"placeId":"tvergastein","image":"bilder/kort/people/arne_naess.PNG"},

  {"id":"klanen_intility","name":"Klanen (VIF)","initials":"VK","lat":59.9157,"lon":10.7919,"r":180,"desc":"Supporterkultur i Oslo øst.","tags":["subkultur"],"placeId":"valle_hovin","image":"bilder/kort/people/klanen_intility.PNG"},
  {"id":"kolapalsen_karljohan","name":"Køla-Pålsen","initials":"KP","r":160,"desc":"Legendarisk byoriginal på Karl Johan på 1800-tallet.","tags":["subkultur"],"placeId":"oslo_domkirke","image":"bilder/kort/people/kolapalsen_karljohan.PNG"},
  {"id":"snippmoller_stortorvet","name":"Snipp-Møller","initials":"SM","r":160,"desc":"Original knyttet til Stortorvet/Karl Johan på 1800-tallet.","tags":["subkultur"],"placeId":"oslo_domkirke","image":"bilder/kort/people/snippmoller_stortorvet.PNG"},
  {"id":"lusefrants_vaterland","name":"Luse-Frants","initials":"LF","r":160,"desc":"Original fra Vaterland-området (1800-tallet).","tags":["subkultur"],"placeId":"middelalder_oslo","image":"bilder/kort/people/lusefrants_vaterland.PNG"},
  {"id":"lisa_kristoffersen_sagene","name":"Lisa Kristoffersen","initials":"LK","r":160,"desc":"Sagene-original og samfunnsdebattant (før 1900).","tags":["subkultur"],"placeId":"voienvolden","image":"bilder/kort/people/lisa_kristoffersen_sagene.PNG"},
  {"id":"advokat_hermansen","name":"Advokat Hermansen","initials":"AH","r":160,"desc":"Kjent skikkelse i sentrumsmiljøet på 1900-tallet.","tags":["subkultur"],"placeId":"stortinget","image":"bilder/kort/people/advokat_hermansen.PNG"},
  {"id":"ole_bjorn","name":"Ole-Bjørn","initials":"OB","r":160,"desc":"Oslo-original fra 1900-tallets byliv.","tags":["subkultur"],"placeId":"oslo_domkirke","image":"bilder/kort/people/ole_bjorn.PNG"},
  {"id":"viggo_tigeren","name":"Viggo (byen som tiger)","initials":"VG","lat":59.9111,"lon":10.7528,"r":150,"desc":"Byens maskot – tigerbyen Oslo.","tags":["subkultur"],"placeId":"tigeren","image":"bilder/kort/people/viggo_tigeren.PNG"},
  {"id":"tinashe_williamson","name":"Tinashe Williamson","initials":"TW","r":160,"desc":"Modell/forfatter – «Oslo Original» 2016.","tags":["subkultur"],"placeId":"aker_brygge","image":"bilder/kort/people/tinashe_williamson.PNG"},
  {"id":"stephen_butkus","name":"Stephen Butkus","initials":"SB","r":160,"desc":"Fotograf – «Oslo Original» 2016.","tags":["subkultur"],"placeId":"tjuvholmen","image":"bilder/kort/people/stephen_butkus.PNG"},

  {"id":"herman_flesvig","name":"Herman Flesvig","initials":"HF","lat":59.9763,"lon":10.7323,"r":200,"desc":"Komiker og turentusiast.","tags":["populaerkultur"],"placeId":"botanisk_hage","image":"bilder/kort/people/herman_flesvig.PNG"},
  {"id":"astridS_sorenga","name":"Astrid S","initials":"AS","lat":59.9029,"lon":10.7492,"r":180,"desc":"Artist – sommer og byliv.","tags":["populaerkultur"],"placeId":"sorenga","image":"bilder/kort/people/astridS_sorenga.PNG"},
  
  {"id":"sigrid_undset","name":"Sigrid Undset","initials":"SU","lat":59.9138,"lon":10.7168,"r":150,"desc":"Forfatter og nobelprisvinner i litteratur. Skildret menneskelivets valg og tro i middelalderens Norge.","tags":["litteratur"],"placeId":"nasjonalbiblioteket","image":"bilder/kort/people/sigrid_undset.PNG"},
  {"id":"edvard_grieg","name":"Edvard Grieg","initials":"EG","lat":59.9076,"lon":10.7532,"r":150,"desc":"Norsk komponist og pianist – tonesatte folkesjelen og naturen i klassisk musikk.","tags":["musikk"],"placeId":"operaen","image":"bilder/kort/people/edvard_grieg.PNG"},
  {"id":"fridtjof_nansen","name":"Fridtjof Nansen","initials":"FN","lat":59.9176,"lon":10.7332,"r":180,"desc":"Oppdager, vitenskapsmann og humanist – kombinerte polarutforskning med arbeid for flyktninger og fred.","tags":["natur","politikk"],"placeId":"observatoriet","image":"bilder/kort/people/fridtjof_nansen.PNG"},
  {"id":"max_manus","name":"Max Manus","initials":"MM","lat":59.9133,"lon":10.7389,"r":160,"desc":"Motstandshelt under andre verdenskrig – sentral i Oslogjengen og kjent for boken «Det vil helst gå godt».","tags":["politikk"],"placeId":"stortinget","image":"bilder/kort/people/max_manus.PNG"},
  {"id":"olav_den_hellige","name":"Olav den Hellige","initials":"OH","lat":63.4305,"lon":10.3951,"r":300,"desc":"Konge på 1000-tallet – samlet Norge og falt i slaget på Stiklestad. Senere kåret til helgen.","tags":["politikk"],"placeId":"stortinget","image":"bilder/kort/people/olav_den_hellige.PNG"},
  {"id":"christian_frederik","name":"Christian Frederik","initials":"CF","lat":59.9133,"lon":10.7389,"r":160,"desc":"Dansk prins og norsk konge i 1814 – ledet Riksforsamlingen på Eidsvoll og ble symbol for selvstendigheten.","tags":["politikk"],"placeId":"stortinget","image":"bilder/kort/people/christian_frederik.PNG"},
  {"id":"roald_amundsen","name":"Roald Amundsen","initials":"RA","lat":59.9105,"lon":10.741,"r":180,"desc":"Polfarer og oppdager – første menneske på Sydpolen og en pionér for moderne ekspedisjoner.","tags":["natur","politikk"],"placeId":"nobelinstituttet","image":"bilder/kort/people/roald_amundsen.PNG"},
  {"id":"kong_christian_iv","name":"Kong Christian IV","initials":"CC","lat":59.9108,"lon":10.7373,"r":200,"desc":"Dansk-norsk konge som gjenreiste Oslo etter bybrannen i 1624 og ga byen navnet Christiania.","tags":["politikk","by"],"placeId":"akershus_festning","image":"bilder/kort/people/kong_christian_iv.PNG"}
]
