[
  { "id":"gro_stortinget","name":"Gro Harlem Brundtland","initials":"GH","lat":59.9133,"lon":10.7389,"r":150,"desc":"Statsminister og «landsmoderen».","tags":["historie","politikk"],"placeId":"stortinget" },
  { "id":"jens_stortinget","name":"Jens Stoltenberg","initials":"JS","lat":59.9133,"lon":10.7389,"r":150,"desc":"NATO-sjef og tidligere statsminister.","tags":["historie","politikk"],"placeId":"stortinget" },

  { "id":"christian4_akershus","name":"Kong Christian IV","initials":"C4","lat":59.9075,"lon":10.7376,"r":150,"desc":"Kongen som ga byen navnet Christiania.","tags":["historie","kongehus"],"placeId":"akershus_festning" },
  { "id":"maxmanus_akershus","name":"Max Manus","initials":"MM","lat":59.9075,"lon":10.7376,"r":150,"desc":"Motstandsmann under 2. verdenskrig.","tags":["historie","motstand"],"placeId":"akershus_festning" },

  { "id":"nansen_fram","name":"Fridtjof Nansen","initials":"FN","lat":59.9045,"lon":10.6999,"r":150,"desc":"Oppdager, polfarer og humanist.","tags":["historie","oppdagelse"],"placeId":"frammuseet" },
  { "id":"amundsen_fram","name":"Roald Amundsen","initials":"RA","lat":59.9045,"lon":10.6999,"r":150,"desc":"Første til Sydpolen (1911).","tags":["historie","oppdagelse"],"placeId":"frammuseet" },

  { "id":"munch_munch","name":"Edvard Munch","initials":"EM","lat":59.9057,"lon":10.7606,"r":150,"desc":"Norges mest kjente kunstner.","tags":["kultur","maleri"],"placeId":"munch_museet" },
  { "id":"harriet_nasjonalmuseet","name":"Harriet Backer","initials":"HB","lat":59.9146,"lon":10.7229,"r":150,"desc":"Pionér innen norsk malerkunst.","tags":["kultur","maleri"],"placeId":"nasjonalmuseet" },
  { "id":"ibsen_national","name":"Henrik Ibsen","initials":"HI","lat":59.9146,"lon":10.7312,"r":150,"desc":"Dramatiker – «Et dukkehjem».","tags":["kultur","teater"],"placeId":"nationaltheatret" },
  { "id":"vigeland_parken","name":"Gustav Vigeland","initials":"GV","lat":59.9270,"lon":10.7003,"r":150,"desc":"Skaperen av Vigelandsparken.","tags":["kultur","skulptur"],"placeId":"vigelandsparken" },

  { "id":"flagstad_opera","name":"Kirsten Flagstad","initials":"KF","lat":59.9076,"lon":10.7532,"r":150,"desc":"Verdensstjerne fra operaens gullalder.","tags":["kultur","opera"],"placeId":"operaen" },
  { "id":"rybak_opera","name":"Alexander Rybak","initials":"AR","lat":59.9076,"lon":10.7532,"r":150,"desc":"Fiolinist og Eurovision-vinner.","tags":["kultur","musikk"],"placeId":"operaen" },

  { "id":"ada_ullevall","name":"Ada Hegerberg","initials":"AH","lat":59.9489,"lon":10.7353,"r":200,"desc":"Ballon d’Or-vinner og landslagsspiss.","tags":["sport","fotball"],"placeId":"ullevaal_stadion" },
  { "id":"haaland_ullevall","name":"Erling Braut Haaland","initials":"EH","lat":59.9489,"lon":10.7353,"r":200,"desc":"Spiss i verdensklasse.","tags":["sport","fotball"],"placeId":"ullevaal_stadion" },

  { "id":"deila_intility","name":"Ronny Deila","initials":"RD","lat":59.9157,"lon":10.7919,"r":180,"desc":"Trenerprofil – Vålerenga.","tags":["sport","fotball"],"placeId":"valle_hovin" },
  { "id":"klanen_intility","name":"Klanen (VIF)","initials":"VK","lat":59.9157,"lon":10.7919,"r":180,"desc":"Supporterkultur i Oslo øst.","tags":["sport","supportere"],"placeId":"valle_hovin" },

  { "id":"marit_holmenkollen","name":"Marit Bjørgen","initials":"MB","lat":59.9644,"lon":10.6689,"r":200,"desc":"Tidenes vinterolympier.","tags":["sport","ski"],"placeId":"holmenkollen" },
  { "id":"johaug_holmenkollen","name":"Therese Johaug","initials":"TJ","lat":59.9644,"lon":10.6689,"r":200,"desc":"OL- og VM-gull i langrenn.","tags":["sport","ski"],"placeId":"holmenkollen" },

  { "id":"grete_sognsvann","name":"Grete Waitz","initials":"GW","lat":59.9763,"lon":10.7323,"r":200,"desc":"Maraton-legende og Oslostemme.","tags":["sport","løp"],"placeId":"botanisk_hage" },
  { "id":"herman_sognsvann","name":"Herman Flesvig","initials":"HF","lat":59.9763,"lon":10.7323,"r":200,"desc":"Komiker og turentusiast.","tags":["kultur","kjendis"],"placeId":"botanisk_hage" },

  { "id":"aurora_salt","name":"Aurora","initials":"AU","lat":59.9078,"lon":10.7525,"r":180,"desc":"Popartist med særegent uttrykk.","tags":["urban life","artist"],"placeId":"salt" },
  { "id":"sigrid_salt","name":"Sigrid","initials":"SI","lat":59.9078,"lon":10.7525,"r":180,"desc":"Popstjerne med Oslo-forbindelse.","tags":["urban life","artist"],"placeId":"salt" },

  { "id":"karpe_sorenga","name":"Karpe","initials":"KA","lat":59.9029,"lon":10.7492,"r":180,"desc":"Chirag og Magdi – rapduoen fra Oslo.","tags":["urban life","artist"],"placeId":"sorenga" },
  { "id":"astridS_sorenga","name":"Astrid S","initials":"AS","lat":59.9029,"lon":10.7492,"r":180,"desc":"Artist – sommer og byliv.","tags":["urban life","artist"],"placeId":"sorenga" },

  { "id":"zucca_vulkan","name":"Mats Zuccarello","initials":"MZ","lat":59.9220,"lon":10.7516,"r":180,"desc":"Ishockeyprofil fra Grünerløkka.","tags":["urban life","sport"],"placeId":"vulkan" },
  { "id":"ulrikke_vulkan","name":"Ulrikke Brandstorp","initials":"UB","lat":59.9220,"lon":10.7516,"r":180,"desc":"Artist og musikalstjerne.","tags":["kultur","artist"],"placeId":"vulkan" },

  { "id":"stordalen_tjuv","name":"Petter Stordalen","initials":"PS","lat":59.9070,"lon":10.7205,"r":180,"desc":"Hotellkonge og kunstelsker.","tags":["urban life","næringsliv"],"placeId":"tjuvholmen" },
  { "id":"melgaard_tjuv","name":"Bjarne Melgaard","initials":"BM","lat":59.9070,"lon":10.7205,"r":180,"desc":"Kontroversiell samtidskunstner.","tags":["kultur","kunst"],"placeId":"tjuvholmen" },

  { "id":"kygo_barcode","name":"Kygo","initials":"KY","lat":59.9093,"lon":10.7539,"r":180,"desc":"DJ og produsent – moderne Oslo.","tags":["kultur","artist"],"placeId":"barcode" },
  { "id":"gabrielle_barcode","name":"Gabrielle","initials":"GA","lat":59.9093,"lon":10.7539,"r":180,"desc":"Popartist og låtskriver.","tags":["kultur","artist"],"placeId":"barcode" },

  { "id":"olav_ladegard","name":"Olav den Hellige","initials":"OH","lat":59.9078,"lon":10.7709,"r":160,"desc":"Konge og helgen i norsk middelalder.","tags":["historie","middelalder"],"placeId":"oslo_ladegard" },
  { "id":"camilla_damstredet","name":"Camilla Collett","initials":"CC","lat":59.9295,"lon":10.7431,"r":160,"desc":"Forfatter og kvinnesaksforkjemper.","tags":["historie","litteratur"],"placeId":"damstredet_telthusbakken" },

  { "id":"hamsun_nb","name":"Knut Hamsun","initials":"KH","lat":59.9138,"lon":10.7168,"r":150,"desc":"Forfatter – kontroversiell arv.","tags":["kultur","litteratur"],"placeId":"nasjonalbiblioteket" },
  { "id":"linn_nb","name":"Linn Ullmann","initials":"LU","lat":59.9138,"lon":10.7168,"r":150,"desc":"Forfatter og kritiker.","tags":["kultur","litteratur"],"placeId":"nasjonalbiblioteket" },

  { "id":"kong_harald_slottet","name":"Kong Harald V","initials":"KH","lat":59.91699,"lon":10.72763,"r":180,"desc":"Norges konge siden 1991.","tags":["historie","kongehus"],"placeId":"slottet" },
  { "id":"dronning_sonja_slottet","name":"Dronning Sonja","initials":"DS","lat":59.91699,"lon":10.72763,"r":180,"desc":"Dronning og kunstner.","tags":["historie","kongehus"],"placeId":"slottet" },

  { "id":"arif_stovner","name":"Arif","initials":"AR","lat":59.9705,"lon":10.9238,"r":200,"desc":"Rapper med røtter på Stovner.","tags":["urban life","artist"],"placeId":"stovnertarnet" },

  { "id":"cecilie_ekeberg","name":"Cecilie Malm Brundtland","initials":"CB","lat":59.8997,"lon":10.7753,"r":200,"desc":"Pådriver for Ekeberg skulpturpark.","tags":["kultur","kunst"],"placeId":"ekebergparken" },

  { "id":"viggo_tigeren","name":"Viggo (byen som tiger)","initials":"VG","lat":59.9111,"lon":10.7528,"r":150,"desc":"Byens maskot – tigerbyen Oslo.","tags":["kultur","ikon"],"placeId":"tigeren" },

  /* Byoriginaler – bruker stedet sine koordinater via placeId (lat/lon kan utelates) */
  { "id":"kolapalsen_karljohan","name":"Køla-Pålsen","initials":"KP","r":160,"desc":"Legendarisk byoriginal på Karl Johan på 1800-tallet.","tags":["urban life","byoriginal"],"placeId":"oslo_domkirke" },
  { "id":"snippmoller_stortorvet","name":"Snipp-Møller","initials":"SM","r":160,"desc":"Original knyttet til Stortorvet/Karl Johan på 1800-tallet.","tags":["urban life","byoriginal"],"placeId":"oslo_domkirke" },
  { "id":"lusefrants_vaterland","name":"Luse-Frants","initials":"LF","r":160,"desc":"Original fra Vaterland-området (1800-tallet).","tags":["urban life","byoriginal"],"placeId":"middelalder_oslo" },
  { "id":"lisa_kristoffersen_sagene","name":"Lisa Kristoffersen","initials":"LK","r":160,"desc":"Sagene-original og samfunnsdebattant (før 1900).","tags":["urban life","byoriginal"],"placeId":"voienvolden" },
  { "id":"astrid_christensen","name":"Astrid Christensen","initials":"AC","r":160,"desc":"Markant Osloprofil i bybildet på 1900-tallet.","tags":["urban life","byoriginal"],"placeId":"nationaltheatret" },
  { "id":"advokat_hermansen","name":"Advokat Hermansen","initials":"AH","r":160,"desc":"Kjent skikkelse i sentrumsmiljøet på 1900-tallet.","tags":["urban life","byoriginal"],"placeId":"stortinget" },
  { "id":"ole_kopreitan","name":"Ole Kopreitan","initials":"OK","r":160,"desc":"«Koppen» – fredsaktivist med stand på Karl Johan.","tags":["urban life","byoriginal","aktivisme"],"placeId":"stortinget" },
  { "id":"ole_bjorn","name":"Ole-Bjørn","initials":"OB","r":160,"desc":"Oslo-original fra 1900-tallets byliv.","tags":["urban life","byoriginal"],"placeId":"oslo_domkirke" },
  { "id":"steinar_jakobsen","name":"Steinar Jakobsen","initials":"SJ","r":160,"desc":"Billedkunstner kåret til «Oslo Original» i 2016.","tags":["urban life","byoriginal","kunst"],"placeId":"astrup_fearnley" },
  { "id":"tinashe_williamson","name":"Tinashe Williamson","initials":"TW","r":160,"desc":"Modell/forfatter – «Oslo Original» 2016.","tags":["urban life","byoriginal"],"placeId":"aker_brygge" },
  { "id":"stephen_butkus","name":"Stephen Butkus","initials":"SB","r":160,"desc":"Fotograf – «Oslo Original» 2016.","tags":["urban life","byoriginal","foto"],"placeId":"tjuvholmen" }
]
