[{"id":"cairo","name":"Kairo","lat":30.0444,"lon":31.2357,"r":2500,"category":"by","year":969,"desc":"En av Afrikas og Midtøstens viktigste storbyer, der islamsk byhistorie, kolonial modernitet, Nilen og dagens metropol møtes.","image":"","cardImage":""},{"id":"alexandria","name":"Alexandria","lat":31.2001,"lon":29.9187,"r":2500,"category":"by","year":-331,"desc":"Hellenistisk havneby knyttet til bibliotek, fyrtårn, handel og møtet mellom gresk, egyptisk og middelhavsk kultur.","image":"","cardImage":""},{"id":"lagos","name":"Lagos","lat":6.5244,"lon":3.3792,"r":3500,"category":"by","year":1472,"desc":"En av Afrikas største og mest dynamiske byer, sentral for handel, Nollywood, afrobeats, urban vekst og samtidskultur.","image":"","cardImage":""},{"id":"cape_town","name":"Cape Town","lat":-33.9249,"lon":18.4241,"r":3000,"category":"by","year":1652,"desc":"Havneby der kolonialisme, apartheid, natur, migrasjon og moderne sørafrikansk byutvikling møtes.","image":"","cardImage":""},{"id":"marrakesh","name":"Marrakesh","lat":31.6295,"lon":-7.9811,"r":2200,"category":"by","year":1070,"desc":"Historisk handels- og kulturby med medina, håndverk, byrom og forbindelser mellom Sahara, Maghreb og Middelhavet.","image":"","cardImage":""},{"id":"istanbul","name":"Istanbul","lat":41.0082,"lon":28.9784,"r":3500,"category":"by","year":330,"desc":"En verdensby mellom Europa og Asia, sentral for romersk, bysantinsk, osmansk og moderne historie.","image":"","cardImage":""},{"id":"baghdad","name":"Bagdad","lat":33.3152,"lon":44.3661,"r":3000,"category":"by","year":762,"desc":"Abbasidisk hovedstad og et av middelalderens store kunnskaps- og oversettelsessentre.","image":"","cardImage":""},{"id":"dubai","name":"Dubai","lat":25.2048,"lon":55.2708,"r":3000,"category":"by","year":1833,"desc":"Eksempel på ekstremt rask urban transformasjon, global kapital, luftfart, høyhus og ørkenurbanisme.","image":"","cardImage":""},{"id":"tehran","name":"Teheran","lat":35.6892,"lon":51.389,"r":3000,"category":"by","year":1786,"desc":"Moderne iransk hovedstad der statsmakt, revolusjon, religion, modernisering og storbyliv møtes.","image":"","cardImage":""},{"id":"delhi","name":"Delhi","lat":28.6139,"lon":77.209,"r":3500,"category":"by","year":1200,"desc":"Bylandskap der sultanater, mogulriket, britisk kolonimakt og moderne indisk stat ligger lag på lag.","image":"","cardImage":""},{"id":"mumbai","name":"Mumbai","lat":19.076,"lon":72.8777,"r":3500,"category":"by","year":1661,"desc":"Indisk finans-, film- og havneby, viktig for Bollywood, kolonihistorie, migrasjon og global urbanisering.","image":"","cardImage":""},{"id":"kolkata","name":"Kolkata","lat":22.5726,"lon":88.3639,"r":3000,"category":"by","year":1690,"desc":"Tidligere britisk kolonihovedstad i India og et viktig sentrum for litteratur, politikk, handel og intellektuelt liv.","image":"","cardImage":""},{"id":"beijing","name":"Beijing","lat":39.9042,"lon":116.4074,"r":3500,"category":"by","year":1400,"desc":"Kinesisk hovedstad der keiserlig byorden, revolusjon, statsmakt og moderne globalpolitikk møtes.","image":"","cardImage":""},{"id":"tokyo","name":"Tokyo","lat":35.6762,"lon":139.6503,"r":3500,"category":"by","year":1603,"desc":"En av verdens største metropoler, sentral for teknologi, transport, design, anime, spill og moderne byliv.","image":"","cardImage":""},{"id":"seoul","name":"Seoul","lat":37.5665,"lon":126.978,"r":3000,"category":"by","year":1394,"desc":"Koreansk hovedstad der dynastisk historie, krig, teknologi, K-pop og global samtid møtes.","image":"","cardImage":""},{"id":"shanghai","name":"Shanghai","lat":31.2304,"lon":121.4737,"r":3500,"category":"by","year":1842,"desc":"Global handels- og finansby der koloniale konsesjoner, havneøkonomi og kinesisk modernitet møtes.","image":"","cardImage":""},{"id":"jakarta","name":"Jakarta","lat":-6.2088,"lon":106.8456,"r":3500,"category":"by","year":1527,"desc":"Sørøstasiatisk megaby der kolonihistorie, urban vekst, flom, synkende grunn og statlig planlegging møtes.","image":"","cardImage":""},{"id":"rome","name":"Roma","lat":41.9028,"lon":12.4964,"r":3000,"category":"by","year":-753,"desc":"En av verdens mest historisk lagdelte byer, fra republikk og imperium til pavedømme og moderne hovedstad.","image":"","cardImage":""},{"id":"athens","name":"Athen","lat":37.9838,"lon":23.7275,"r":2500,"category":"by","year":-508,"desc":"Byen gir samlet ramme for demokrati, filosofi, teater, bystat og antikkens politiske kultur.","image":"","cardImage":""},{"id":"paris","name":"Paris","lat":48.8566,"lon":2.3522,"r":3000,"category":"by","year":52,"desc":"Global kultur- og revolusjonsby der kunst, byplan, politikk, mote, litteratur og modernitet møtes.","image":"","cardImage":""},{"id":"london","name":"London","lat":51.5074,"lon":-0.1278,"r":3500,"category":"by","year":43,"desc":"Verdensby formet av romersk grunnleggelse, britisk imperium, finans, migrasjon, kultur og parlamentarisme.","image":"","cardImage":""},{"id":"berlin","name":"Berlin","lat":52.52,"lon":13.405,"r":3000,"category":"by","year":1237,"desc":"By der prøyssisk makt, nazisme, verdenskrig, deling, gjenforening, kunst og subkultur møtes.","image":"","cardImage":""},{"id":"new_york_city","name":"New York City","lat":40.7128,"lon":-74.006,"r":3500,"category":"by","year":1624,"desc":"Global metropol for migrasjon, finans, kunst, medier, populærkultur, byutvikling og politisk symbolikk.","image":"","cardImage":""},{"id":"mexico_city","name":"Mexico by","lat":19.4326,"lon":-99.1332,"r":3500,"category":"by","year":1325,"desc":"By bygget på Tenochtitlan, der førkolumbisk makt, kolonial erobring og moderne megaby overlapper.","image":"","cardImage":""},{"id":"sao_paulo","name":"São Paulo","lat":-23.5558,"lon":-46.6396,"r":3500,"category":"by","year":1554,"desc":"Sør-Amerikas største økonomiske metropol, sentral for industri, migrasjon, kultur, ulikhet og urban vekst.","image":"","cardImage":""},{"id":"buenos_aires","name":"Buenos Aires","lat":-34.6037,"lon":-58.3816,"r":3000,"category":"by","year":1580,"desc":"Havneby og kulturmetropol knyttet til tango, migrasjon, litteratur, politikk og argentinsk offentlighet.","image":"","cardImage":""},{"id":"rio_de_janeiro","name":"Rio de Janeiro","lat":-22.9068,"lon":-43.1729,"r":3500,"category":"by","year":1565,"desc":"By der fjell, hav, samba, karneval, ulikhet, sport og globalt bysymbol møtes.","image":"","cardImage":""},{"id":"sydney","name":"Sydney","lat":-33.8688,"lon":151.2093,"r":3000,"category":"by","year":1788,"desc":"Australsk havneby der kolonial bosetting, urfolkshistorie, scenekunst og global byidentitet møtes.","image":"","cardImage":""},{"id":"auckland","name":"Auckland","lat":-36.8509,"lon":174.7645,"r":3000,"category":"by","year":1840,"desc":"Storby der Māori-historie, kolonial bosetting, havn, migrasjon og stillehavskontakter møtes.","image":"","cardImage":""},{"id":"singapore","name":"Singapore","lat":1.3521,"lon":103.8198,"r":3000,"category":"by","year":1819,"desc":"Bystat og globalt knutepunkt for handel, havn, finans, planlegging, flerkulturell urbanitet og teknologisk infrastruktur.","image":"","cardImage":""},{"id":"nairobi","name":"Nairobi","lat":-1.2921,"lon":36.8219,"r":3000,"category":"by","year":1899,"desc":"Østafrikansk metropol vokst fram rundt jernbane, kolonial infrastruktur, nasjonalpark, diplomati og moderne teknologimiljø.","image":"","cardImage":""},{"id":"addis_ababa","name":"Addis Abeba","lat":8.9806,"lon":38.7578,"r":3000,"category":"by","year":1886,"desc":"Etiopisk hovedstad og afrikansk diplomatisk sentrum, viktig for keisertid, modernisering, Den afrikanske union og høylandsurbanitet.","image":"","cardImage":""},{"id":"johannesburg","name":"Johannesburg","lat":-26.2041,"lon":28.0473,"r":3500,"category":"by","year":1886,"desc":"Gullgruveby og sørafrikansk metropol der kapital, apartheid, migrasjon, townshiphistorie og urban ulikhet møtes.","image":"","cardImage":""},{"id":"dakar","name":"Dakar","lat":14.7167,"lon":-17.4677,"r":3000,"category":"by","year":1857,"desc":"Vestafrikansk havne- og kulturby, viktig for kolonial infrastruktur, panafrikansk offentlighet, musikk og Atlanterhavskontakter.","image":"","cardImage":""},{"id":"moscow","name":"Moskva","lat":55.7558,"lon":37.6173,"r":3500,"category":"by","year":1147,"desc":"Russisk maktby der middelalderfyrstedømme, imperium, sovjetstat, kald krig og moderne geopolitikk møtes.","image":"","cardImage":""},{"id":"madrid","name":"Madrid","lat":40.4168,"lon":-3.7038,"r":3000,"category":"by","year":1561,"desc":"Spansk hovedstad knyttet til habsburgsk og bourbonisk makt, kolonirikets sentrum, kunstsamlinger og moderne byliv.","image":"","cardImage":""},{"id":"vienna","name":"Wien","lat":48.2082,"lon":16.3738,"r":3000,"category":"by","year":1155,"desc":"Habsburgsk hovedstad og sentral europeisk kulturby for klassisk musikk, psykoanalyse, modernisme og imperial byform.","image":"","cardImage":""},{"id":"amsterdam","name":"Amsterdam","lat":52.3676,"lon":4.9041,"r":3000,"category":"by","year":1275,"desc":"Kanal- og handelsby der kapitalisme, sjøfart, koloniale nettverk, toleransehistorie og moderne byforvaltning møtes.","image":"","cardImage":""},{"id":"prague","name":"Praha","lat":50.0755,"lon":14.4378,"r":3000,"category":"by","year":885,"desc":"Sentral-europeisk kulturby med middelalderbyrom, keisermakt, universitetshistorie, litteratur og politiske vendepunkter.","image":"","cardImage":""},{"id":"los_angeles","name":"Los Angeles","lat":34.0522,"lon":-118.2437,"r":3500,"category":"by","year":1781,"desc":"Global medie- og filmby der Hollywood, bilurbanisme, migrasjon, musikk, strandkultur og moderne populærkultur møtes.","image":"","cardImage":""},{"id":"chicago","name":"Chicago","lat":41.8781,"lon":-87.6298,"r":3000,"category":"by","year":1833,"desc":"Industriby og arkitekturby, viktig for skyskrapere, jernbane, migrasjon, arbeid, blues og Chicago-skolens urbansosiologi.","image":"","cardImage":""},{"id":"toronto","name":"Toronto","lat":43.6532,"lon":-79.3832,"r":3000,"category":"by","year":1793,"desc":"Kanadisk metropol kjent for migrasjon, flerkulturell urbanitet, finans, filmindustri, musikk og nordamerikansk byvekst.","image":"","cardImage":""},{"id":"lima","name":"Lima","lat":-12.0464,"lon":-77.0428,"r":3000,"category":"by","year":1535,"desc":"Kolonial hovedstad ved Stillehavet, der førkolumbiske spor, spansk viceregal makt, migrasjon og moderne ulikhet møtes.","image":"","cardImage":""},{"id":"bogota","name":"Bogotá","lat":4.711,"lon":-74.0721,"r":3000,"category":"by","year":1538,"desc":"Høylandsmetropol der kolonial historie, statsmakt, konflikt, urban reform, kultur og latinamerikansk offentlighet møtes.","image":"","cardImage":""},{"id":"santiago","name":"Santiago de Chile","lat":-33.4489,"lon":-70.6693,"r":3000,"category":"by","year":1541,"desc":"Chilensk hovedstad der kolonial grunnleggelse, Andeslandskap, militærdiktatur, protest og moderne økonomisk utvikling møtes.","image":"","cardImage":""},{"id":"bangkok","name":"Bangkok","lat":13.7563,"lon":100.5018,"r":3500,"category":"by","year":1782,"desc":"Sørøstasiatisk hovedstad ved Chao Phraya, der kongemakt, vannveier, templer, handel og moderne megaby møtes.","image":"","cardImage":""},{"id":"manila","name":"Manila","lat":14.5995,"lon":120.9842,"r":3500,"category":"by","year":1571,"desc":"Havneby der spansk kolonimakt, amerikansk styre, krig, katolisisme, handel og sørøstasiatisk megabyvekst møtes.","image":"","cardImage":""},{"id":"karachi","name":"Karachi","lat":24.8607,"lon":67.0011,"r":3500,"category":"by","year":1729,"desc":"Pakistansk havnemetropol der kolonial havneutvikling, delingen av India, migrasjon, handel og urban kompleksitet møtes.","image":"","cardImage":""},{"id":"dhaka","name":"Dhaka","lat":23.8103,"lon":90.4125,"r":3500,"category":"by","year":1608,"desc":"En av verdens tetteste megabyer, viktig for deltaøkologi, tekstilindustri, migrasjon, klima og bangladeshisk statshistorie.","image":"","cardImage":""},{"id":"kuala_lumpur","name":"Kuala Lumpur","lat":3.139,"lon":101.6869,"r":3000,"category":"by","year":1857,"desc":"Malaysisk hovedstad vokst fram fra gruvedrift til moderne flerkulturell metropol med høyhus, handel og regional finans.","image":"","cardImage":""}]