[
  {
    "id": "universitetets_gamle_hovedbygning",
    "name": "Universitetets gamle hovedbygning",
    "lat": 59.9118,
    "lon": 10.7411,
    "r": 150,
    "category": "vitenskap",
    "year": 1852,
    "desc": "Universitetets klassiske hovedbygning – sentrum for norsk forskning siden 1800-tallet.",
    "image": "bilder/places/univers_gamle.PNG",
    "cardImage": "bilder/kort/places/universitetets_gamle_hovedbygning.PNG"
  },
  {
    "id": "universitetets_gamle_kjemi",
    "name": "Universitetets gamle kjemibygning",
    "lat": 59.911,
    "lon": 10.7414,
    "r": 140,
    "category": "vitenskap",
    "year": 1865,
    "desc": "Her utviklet Waage og Guldberg loven om massevirkning på 1860-tallet.",
    "image": "bilder/places/universitetets_gamle_kjemi.PNG",
    "cardImage": "bilder/kort/places/universitetets_gamle_kjemi.PNG"
  },
  {
    "id": "tvergastein",
    "name": "Tvergastein",
    "lat": 60.5322,
    "lon": 8.1824,
    "r": 400,
    "category": "vitenskap",
    "year": 1937,
    "desc": "Arne Næss’ fjellhytte på Hardangervidda – stedet der dypøkologien ble til.",
    "image": "bilder/places/Tvergastein.JPG",
    "cardImage": "bilder/kort/places/tvergastein.PNG"
  },

  {
    "id": "gamlebyen_skole",
    "name": "Gamlebyen skole",
    "lat": 59.9036,
    "lon": 10.7671,
    "r": 150,
    "category": "vitenskap",
    "year": 1799,
    "desc": "En av Oslos eldste undervisningsinstitusjoner; etablert på 1700-tallet og fortsatt i bruk."
  },

  {
    "id": "abelhaugen",
    "name": "Abelhaugen",
    "lat": 59.9185,
    "lon": 10.7294,
    "r": 150,
    "category": "vitenskap",
    "year": 1908,
    "desc": "Minnesmerke etter Niels Henrik Abel – matematikerens åsside ved Slottsparken.",
    "image": "bilder/places/Abelhaugen.JPG",
    "cardImage": "bilder/kort/places/abelhaugen.PNG",
    "popupDesc": "Abelhaugen er oppkalt etter den norske matematikeren Niels Henrik Abel, og ligger som en liten høyde mellom Slottsparken og Nationaltheatret. Minnesmerket ble reist i 1908 og markerer hans betydning som en av Norges største vitenskapelige skikkelser. Området er et kjent møtested og et stille punkt midt i byen, der vitenskapens historie møter Oslos byliv."
  }
  
]
