[

  {
    "id": "oslo_gassverk",
    "name": "Oslo Gassverk",
    "lat": 59.9255,
    "lon": 10.7472,
    "r": 150,
    "category": "naeringsliv",
    "year": 1858,
    "desc": "Forsynte byen med gass til belysning og oppvarming fra 1858 – et symbol på industrialisering og modernitet.",
    "image": "bilder/places/oslo_gassverk.JPG",
    "cardImage": "bilder/kort/places/Oslo_Gassverk.PNG",
    "popupDesc": "Anlegget ble oppført som Christiania Gasværk og ga byen lys i gatene, fabrikker og hjem. Det markerte overgangen til moderne, urban infrastruktur og var en hjørnestein i den industrielle utviklingen av hovedstaden. I dag står området igjen som et historisk minne om tiden da gass drev byens vekst."
  },
  {
    "id": "havnelageret",
    "name": "Oslo Havnelager",
    "lat": 59.9092,
    "lon": 10.7429,
    "r": 160,
    "category": "naeringsliv",
    "year": 1921,
    "desc": "Reist i 1920-årene som Skandinavias største betongbygg – lagret kaffe, korn og kolonivarer fra hele verden."
  },
  {
    "id": "tollbukaia",
    "name": "Tollbukaia",
    "lat": 59.9078,
    "lon": 10.7421,
    "r": 130,
    "category": "naeringsliv",
    "year": 1890,
    "desc": "Oslos historiske tollområde – møtepunkt for skip, handel og kontroll ved havnen.",
    "popupDesc": "Tollbukaia var i over hundre år en av Oslos mest sentrale havneplasseringer for toll, kontroll og vareflyt. Her møttes skip fra inn- og utland, og området fungerte som bindeledd mellom sjøfart, handel og byens voksende næringsliv. Kaia er et konkret minne om hvordan Oslo ble formet av import, eksport og maritime forbindelser – et industrielt knutepunkt som bandt byen til verden.",
    "image": "bilder/kort/places/Tollboden.JPG",
    "cardImage": "bilder/kort/places/tollbukaia.PNG"
  },
  {
    "id": "oslo_posthus",
    "name": "Oslo Posthus",
    "lat": 59.9118,
    "lon": 10.7515,
    "r": 120,
    "category": "naeringsliv",
    "year": 1924,
    "desc": "Oppført i 1924 – monumentalbygning for post og telegraf, et knutepunkt for kommunikasjon."
  },
  {
    "id": "telegrafbygningen",
    "name": "Telegrafbygningen",
    "lat": 59.9105,
    "lon": 10.7405,
    "r": 140,
    "category": "naeringsliv",
    "year": 1924,
    "desc": "Bygget i 1924 som hovedsentral for telegraf og telefoni – teknologisk sentrum i Oslo.",
    "image": "bilder/places/telegrafbygningen.PNG",
    "cardImage": "bilder/kort/places/telegrafbygningen.PNG"
  },
  {
    "id": "vinmonopolet_lager",
    "name": "Vinmonopolets hovedlager",
    "lat": 59.9247,
    "lon": 10.7524,
    "r": 160,
    "category": "naeringsliv",
    "year": 1930,
    "desc": "Bygget i 1930 i funksjonalistisk stil – et uttrykk for statlig styring av handel og produksjon.",
    "popupDesc": "Vinmonopolets sentralanlegg ble oppført på Hasle i 1933 som et funksjonalistisk tapperi- og lagerbygg tegnet av Otto Valentin Juell og Otto Legaard Scheen. De ble året etter tildelt Houens diplom for arbeidet. Hovedbygningen dekker 10 dekar, er oppført i jern og tegl, og regnes som et hovedverk innen norsk funksjonalisme. Anlegget var ved åpningen Nordens største industribygg med moderne produksjon, lagring, tapping og ekspedisjon av brennevin. Under krigen beslagla den tyske okkupasjonsmakten deler av området til lagerformål. Arcus overtok virksomheten i 1996 og flyttet ut i 2011. Anlegget ble vernet i 2011 og senere bygget om til boliger og kjøpesenteret Vinslottet, åpnet i 2019.",
    "image": "bilder/places/Vinmonopolets_hovedlager.PNG",
    "cardImage": "bilder/kort/places/vinmonopolets-hovedlager.PNG",
    "popupImage": "bilder/places/vinmonopolet_lager.PNG"
  },
  {
    "id": "nrk_marienlyst",
    "name": "NRK Marienlyst",
    "lat": 59.9323,
    "lon": 10.7182,
    "r": 200,
    "category": "naeringsliv",
    "year": 1938,
    "desc": "Statskringkasterens hovedkvarter fra 1938 – et nasjonalt sentrum for medieproduksjon.",
    "image": "bilder/places/Marienlyst.JPG",
    "cardImage": "bilder/kort/places/marienlyst.PNG",
    "popupDesc": "NRK Marienlyst har siden 1938 vært Norges viktigste radiounderholdnings- og TV-produksjonsmiljø. Her ble alt fra nyhetssendinger til dramaserier og store kulturproduksjoner skapt, og området vokste til et komplett medieknutepunkt med studioer, redaksjoner og tekniske miljøer samlet på ett sted. Bygningene er tett vevd inn i norsk mediehistorie og har preget generasjoner av lyttere og seere."
  },
  {
    "id": "jernbaneverkstedet_lodalen",
    "name": "Lodalen jernbaneverksted",
    "lat": 59.9037,
    "lon": 10.7785,
    "r": 200,
    "category": "naeringsliv",
    "year": 1890,
    "desc": "Vedlikeholdsverksted fra 1890-årene – livsnerven for togtrafikken i Oslo-området.",
    "image": "bilder/places/Lodalen_jernbaneverkstred.JPG",
    "cardImage": "bilder/kort/places/Lodalen_jernbaneverkstred.JPG",
    "popupDesc": "Lodalen jernbaneverksted har siden 1890-årene vært et av Norges mest sentrale anlegg for drift og vedlikehold av tog. Her ble lokomotiver og vogner reparert, modernisert og klargjort for trafikk, og verkstedet fungerte som teknisk ryggmarg for togtrafikken i hovedstadsområdet. Området er en nøkkelbit i industri- og transporthistorien langs østkanten."
  },
  {
    "id": "grunnlovsbygget_bankplassen",
    "name": "Den gamle Norges Bank",
    "lat": 59.9107,
    "lon": 10.742,
    "r": 120,
    "category": "naeringsliv",
    "year": 1828,
    "desc": "Reist i 1828 – landets første sentralbank og symbol på økonomisk nasjonsbygging."
  },
  {
    "id": "akershus_kaier",
    "name": "Akershuskaiene",
    "lat": 59.9059,
    "lon": 10.7423,
    "r": 200,
    "category": "naeringsliv",
    "year": 1850,
    "desc": "Handelens pulsåre i gamle Christiania – her kom varer, fisk, kull og tømmer inn fra hele verden."
  },
  {
    "id": "fornebu_teknologipark",
    "name": "Fornebu Teknologipark",
    "lat": 59.8939,
    "lon": 10.6262,
    "r": 400,
    "category": "naeringsliv",
    "year": 2002,
    "desc": "Tidligere flyplass, nå Norges største teknologiklynge – fra luftfart til IT og innovasjon."
  },
  {
    "id": "ulven_handelspark",
    "name": "Ulven handelspark",
    "lat": 59.9229,
    "lon": 10.8215,
    "r": 200,
    "category": "naeringsliv",
    "year": 2020,
    "desc": "Fra industriområde til moderne næringsklynge – viser byens evne til forvandling og vekst."
  },
  {
    "id": "akershus_energi",
    "name": "Akershus Energi Varme",
    "lat": 59.947,
    "lon": 10.8355,
    "r": 300,
    "category": "naeringsliv",
    "year": 2010,
    "desc": "Produserer fjernvarme og energi til regionen – en moderne arvtaker etter vannkraftens tid."
  },
  {
    "id": "sagene_kvernhus",
    "name": "Sagene mølle og kvernhus",
    "lat": 59.9368,
    "lon": 10.7569,
    "r": 200,
    "category": "naeringsliv",
    "year": 1750,
    "desc": "Her startet byens industrihistorie – møller, sagbruk og tekstilfabrikker drevet av Akerselva på 1800-tallet."
  },
  {
    "id": "ovre_foss",
    "name": "Øvre Foss – Hjula Veveri",
    "lat": 59.9276,
    "lon": 10.755,
    "r": 180,
    "category": "naeringsliv",
    "year": 1855,
    "desc": "Et av Nordens største tekstilverk – grunnlagt i 1855, med kvinnearbeid og dampmaskiner som formet Sagene."
  },
  {
    "id": "oslo_mek",
    "name": "Oslo Mekaniske Verksted",
    "lat": 59.9055,
    "lon": 10.7469,
    "r": 140,
    "category": "naeringsliv",
    "year": 1854,
    "desc": "Verkstedet i Bjørvika produserte dampmaskiner og skip – en motor i norsk industrialisering."
  },
  {
    "id": "schous_bryggeri",
    "name": "Schous bryggeri",
    "lat": 59.9206,
    "lon": 10.7609,
    "r": 160,
    "category": "naeringsliv",
    "year": 1837,
    "desc": "Grunnlagt i 1837 på Grünerløkka – et industribygg og sosialt sentrum for arbeidere og håndverkere."
  },
  {
    "id": "ringnes_bryggeri",
    "name": "Ringnes bryggeri",
    "lat": 59.9305,
    "lon": 10.7599,
    "r": 160,
    "category": "naeringsliv",
    "year": 1876,
    "desc": "Startet i 1876 av brødrene Ringnes – en av landets mest kjente merkevarer og pionerer innen reklame og eksport."
  },
  {
    "id": "st_halvard_bryggeri",
    "name": "St. Halvard bryggeri",
    "lat": 59.9109,
    "lon": 10.7833,
    "r": 140,
    "category": "naeringsliv",
    "year": 1843,
    "desc": "Østkantens stolthet på 1800-tallet – et bryggeri for folket og et sosialt samlingspunkt."
  },
  {
    "id": "oslo_kornmagasin",
    "name": "Christiania kornmagasin",
    "lat": 59.9119,
    "lon": 10.7428,
    "r": 120,
    "category": "naeringsliv",
    "year": 1785,
    "desc": "Oppført i 1785 for å sikre matforsyning i krisetider – et av Norges første offentlige varelager."
  },
  {
    "id": "akershus_slott_bakeriet",
    "name": "Bakeriet ved Akershus",
    "lat": 59.9069,
    "lon": 10.7389,
    "r": 120,
    "category": "naeringsliv",
    "year": 1820,
    "desc": "Statlig bakeri som forsynte garnison og byfolk på 1800-tallet – drevet som håndverksbedrift."
  },
  {
    "id": "jernbanetorget_trafikknutepunkt",
    "name": "Jernbanetorget – handelsknutepunktet",
    "lat": 59.911,
    "lon": 10.7508,
    "r": 150,
    "category": "naeringsliv",
    "year": 1854,
    "desc": "Der tog, trikk, post og handel møttes – symbolet på byens overgang til moderne økonomi."
  },
  {
    "id": "oslo_kraftselskap",
    "name": "Oslo Lysverker",
    "lat": 59.919,
    "lon": 10.7479,
    "r": 140,
    "category": "naeringsliv",
    "year": 1892,
    "desc": "Grunnlagt i 1892 – forsynte byen med elektrisitet og markerte overgangen til den moderne tid."
  },
  {
    "id": "grensen_kjopesenter",
    "name": "Grensen – handelens sentrum",
    "lat": 59.9138,
    "lon": 10.7441,
    "r": 120,
    "category": "naeringsliv",
    "year": 1800,
    "desc": "Fra kolonialhandel og manufaktur til moderne butikker – handelens hovedgate siden 1800-tallet."
  },
  {
    "id": "vippetangen_fisketorg",
    "name": "Vippetangen fisketorg",
    "lat": 59.9012,
    "lon": 10.7429,
    "r": 160,
    "category": "naeringsliv",
    "year": 1890,
    "desc": "Havnas travleste punkt – fisk, is, kull og varer ble losset her fra seilskip og dampbåter."
  },
  {
    "id": "frysja_industriomrade",
    "name": "Frysja industriområde",
    "lat": 59.9611,
    "lon": 10.7645,
    "r": 240,
    "category": "naeringsliv",
    "year": 1750,
    "desc": "Vannkraften fra Akerselva drev sagbruk og møller her allerede på 1700-tallet – et levende industriområde også i dag."
  },
  {
    "id": "norges_varemesse",
    "name": "Norges Varemesse",
    "lat": 59.953,
    "lon": 10.7525,
    "r": 250,
    "category": "naeringsliv",
    "year": 1920,
    "desc": "Startet som utstillingshall for norsk industri og handel – et vindu mot verden for norske bedrifter."
  },
  {
    "id": "bryn_industriomrade",
    "name": "Bryn industriområde",
    "lat": 59.9129,
    "lon": 10.8251,
    "r": 250,
    "category": "naeringsliv",
    "year": 1880,
    "desc": "Et av de eldste industriområdene i Oslo øst – fabrikkhaller, lager og jernbane i tett samspill."
  },
  {
    "id": "gronlikaia",
    "name": "Grønlikaia",
    "lat": 59.9001,
    "lon": 10.7579,
    "r": 220,
    "category": "naeringsliv",
    "year": 1960,
    "desc": "Tidligere container- og havneområde – symbol på byens moderne logistikk og transport."
  },
  {
    "id": "myrens_verksted",
    "name": "Myrens Verksted",
    "lat": 59.9309,
    "lon": 10.7597,
    "r": 180,
    "category": "naeringsliv",
    "year": 1848,
    "desc": "Grunnlagt i 1848 ved Akerselva – produsert maskiner for møller og sagbruk over hele landet."
  },
  {
    "id": "christiania_seildugsfabrik",
    "name": "Christiania Seildugsfabrik",
    "lat": 59.9297,
    "lon": 10.7576,
    "r": 180,
    "category": "naeringsliv",
    "year": 1856,
    "desc": "Startet i 1856 – leverte seilduk og tekstiler til sjøfart og industri. Et av Oslos største arbeidsplasser på 1800-tallet."
  },
  {
    "id": "lilleborg_fabrikker",
    "name": "Lilleborg Fabrikker",
    "lat": 59.9284,
    "lon": 10.7682,
    "r": 180,
    "category": "naeringsliv",
    "year": 1833,
    "desc": "Etablert i 1833 – produsent av såpe og vaskemidler, kjent for merkenavn som Blenda og Lux."
  }
]
