[
  {
    "id": "salt",
    "name": "SALT",
    "lat": 59.9078,
    "lon": 10.7525,
    "r": 160,
    "category": "musikk",
    "year": 2014,
    "desc": "Kulturell møteplass og konsertscene ved fjorden – mellom Operaen og Akershus festning."
  },
  {
    "id": "det_norske_teatret",
    "name": "Det Norske Teatret",
    "lat": 59.913,
    "lon": 10.7418,
    "r": 140,
    "category": "musikk",
    "year": 1912,
    "desc": "Teater- og musikkscene i Oslo sentrum, sentral for norsk scenekunst og musikalske produksjoner."
  },
  {
    "id": "blaa",
    "name": "Blå",
    "lat": 59.9223,
    "lon": 10.7527,
    "r": 130,
    "category": "musikk",
    "year": 1998,
    "desc": "Klubb- og konsertscene ved Akerselva, viktig for jazz, elektronika og klubbkultur i Oslo."
  },
  {
    "id": "rockefeller",
    "name": "Rockefeller Music Hall",
    "lat": 59.9147,
    "lon": 10.7514,
    "r": 140,
    "category": "musikk",
    "year": 1986,
    "desc": "Etablert konsertscene i sentrum med stor betydning for norsk og internasjonalt live-musikkliv."
  },
  {
    "id": "john_dee",
    "name": "John Dee",
    "lat": 59.9146,
    "lon": 10.7513,
    "r": 120,
    "category": "musikk",
    "year": 1997,
    "desc": "Intimscene tilknyttet Rockefeller, kjent for nye band og alternativ live-musikk."
  },
  {
    "id": "sentrum_scene",
    "name": "Sentrum Scene",
    "lat": 59.9138,
    "lon": 10.7497,
    "r": 150,
    "category": "musikk",
    "year": 1992,
    "desc": "Stor konsert- og kulturscene i Oslo sentrum med bredt program innen musikk og scenekunst."
  }
]
